[
  {
    "location": "mg road",
    "latitude": 12.9733,
    "longitude": 77.6117,
    "landmarks": [
      {
        "name": "Utility Building",
        "description": "One of Bangalore's earliest skyscrapers, standing as a legendary commercial architectural anchor on MG Road.",
        "latitude": 12.9744,
        "longitude": 77.6106
      },
      {
        "name": "MG Road Boulevard & Rangoli Metro Art Center",
        "description": "A beautifully reconstructed urban green walkway, exhibition venue, and community art space running beneath the elevated metro structure.",
        "latitude": 12.975,
        "longitude": 77.6074
      },
      {
        "name": "Higginbothams",
        "description": "The city's oldest historic bookstore, offering a heritage brick-and-mortar reading environment since the colonial era.",
        "latitude": 12.9745,
        "longitude": 77.6083
      },
      {
        "name": "Field Marshal Cariappa Memorial Park",
        "description": "A sprawling, immaculately maintained defense-fringe public park featuring military bandstands and children's activity zones.",
        "latitude": 12.9734,
        "longitude": 77.6186
      }
    ],
    "food_and_shopping": [
      {
        "name": "1MG-Lido Mall",
        "type": "Premium Lifestyle Shopping & Entertainment Center",
        "latitude": 12.9747,
        "longitude": 77.6206
      },
      {
        "name": "Lakeview Milkbar",
        "type": "Vintage Legacy Dessert Parlor & Cafe",
        "latitude": 12.9743,
        "longitude": 77.6094
      },
      {
        "name": "Hard Rock Cafe MG Road Area",
        "type": "Iconic Rock-Themed Resto-Pub & Live Venue",
        "latitude": 12.9792,
        "longitude": 77.6012
      },
      {
        "name": "Cauvery Handicrafts Emporium",
        "type": "State-Run Traditional Sandalwood & Arts Retail Flagship",
        "latitude": 12.9744,
        "longitude": 77.6063
      }
    ],
    "transport": [
      {
        "name": "MG Road Metro Station",
        "type": "Major Purple Line and Future Pink Line Interchange Terminal",
        "latitude": 12.9747,
        "longitude": 77.6053
      },
      {
        "name": "Trinity Metro Station",
        "type": "Elevated Purple Line Metro Station",
        "latitude": 12.9731,
        "longitude": 77.6174
      },
      {
        "name": "MG Road Metro Bus Bay",
        "type": "Central Arterial BMTC Route Transit Stop",
        "latitude": 12.9746,
        "longitude": 77.6066
      },
      {
        "name": "Kempegowda Bus Station (Majestic)",
        "type": "Accessible Central City Transport Terminal",
        "latitude": 12.9779,
        "longitude": 77.5731
      }
    ]
  },
  {
    "location": "brigade road",
    "latitude": 12.9711,
    "longitude": 77.607,
    "landmarks": [
      {
        "name": "Brigade Road Intersection (Cauvery Corner)",
        "description": "The high-energy urban core meeting point connecting MG Road and Brigade Road, legendary for city celebrations.",
        "latitude": 12.9743,
        "longitude": 77.6063
      },
      {
        "name": "St. Joseph's Commerce College Campus",
        "description": "A prestigious, long-standing academic institution anchoring the historic student culture of the central district.",
        "latitude": 12.9649,
        "longitude": 77.6105
      },
      {
        "name": "Patrick's Church Complex",
        "description": "A majestic, structurally stunning neo-Gothic cathedral landmark serving the neighborhood since the 1840s.",
        "latitude": 12.9708,
        "longitude": 77.6074
      },
      {
        "name": "The Opera House (Samsung Opera House)",
        "description": "A magnificent colonial-era theatre property meticulously restored into a cutting-edge experiential technology showcase.",
        "latitude": 12.9738,
        "longitude": 77.6068
      }
    ],
    "food_and_shopping": [
      {
        "name": "Rex Walk",
        "type": "Modern Premium Boutique Dining & Retail Strip",
        "latitude": 12.9723,
        "longitude": 77.6069
      },
      {
        "name": "Pecos - Classic Rock Pub",
        "type": "Legendary Retro Multi-Level Rock Pub Lounge",
        "latitude": 12.9721,
        "longitude": 77.6065
      },
      {
        "name": "The Only Place",
        "type": "Famous Heritage Steakhouse & Continental Diner",
        "latitude": 12.9715,
        "longitude": 77.6033
      },
      {
        "name": "Brigade Road Street Market Strips",
        "type": "High-Density Fashion Apparel & Footwear Retail Corridor",
        "latitude": 12.9728,
        "longitude": 77.6069
      }
    ],
    "transport": [
      {
        "name": "MG Road Metro Station (Brigade Entrance)",
        "type": "Immediate Metro Network Access Portal",
        "latitude": 12.9742,
        "longitude": 77.6061
      },
      {
        "name": "Brigade Road Junction Bus Stop",
        "type": "High-Volume Central Business District Transit Stop",
        "latitude": 12.9739,
        "longitude": 77.6067
      },
      {
        "name": "Residency Road Bus Bay",
        "type": "Arterial One-Way Corridor BMTC Platform",
        "latitude": 12.9719,
        "longitude": 77.6065
      },
      {
        "name": "Krantivira Sangolli Rayanna (KSR) Bengaluru Station",
        "type": "Accessible Major Intercity Railway Terminal",
        "latitude": 12.9781,
        "longitude": 77.5697
      }
    ]
  },
  {
    "location": "richmond town",
    "latitude": 12.9592,
    "longitude": 77.6102,
    "landmarks": [
      {
        "name": "Richmond Park Eco-Square",
        "description": "A serene, heritage neighborhood park featuring classic old-canopy trees and quiet paved walking avenues.",
        "latitude": 12.9587,
        "longitude": 77.6111
      },
      {
        "name": "Baldwin Boys' High School Ground",
        "description": "The expansive, historic sports field of a century-old elite colonial-era educational campus framework.",
        "latitude": 12.9614,
        "longitude": 77.6068
      },
      {
        "name": "Richmond Flyover Engineering Curve",
        "description": "A vital multi-branch city traffic infrastructure layout sorting central vehicle lines toward southern hubs.",
        "latitude": 12.9619,
        "longitude": 77.5976
      },
      {
        "name": "All Saints Church",
        "description": "An enchanting, garden-surrounded heritage stone church dating back to Bangalore's early British Cantonment era.",
        "latitude": 12.9622,
        "longitude": 77.6047
      }
    ],
    "food_and_shopping": [
      {
        "name": "Koshy's Parade Cafe Proximity",
        "type": "Famous Vintage Intellectual Café Meeting Lounge",
        "latitude": 12.9754,
        "longitude": 77.6017
      },
      {
        "name": "Fabelle Exquisite Chocolates Richmond",
        "type": "Luxury Artisanal Dessert & Chocolate Boutique",
        "latitude": 12.9621,
        "longitude": 77.6022
      },
      {
        "name": "Sunny's European Bistro Area",
        "type": "Upscale Premium Continental Fine Dining Restaurant",
        "latitude": 12.9698,
        "longitude": 77.6015
      },
      {
        "name": "Richmond Town Commercial Street Strips",
        "type": "Boutique Gourmet Grocers & Retail Retailers",
        "latitude": 12.9595,
        "longitude": 77.6105
      }
    ],
    "transport": [
      {
        "name": "Richmond Circle Bus Terminal Base",
        "type": "Major Central City Multi-Directional Bus Intersect",
        "latitude": 12.9618,
        "longitude": 77.5969
      },
      {
        "name": "Langford Town Bus Stop",
        "type": "Neighborhood Suburban BMTC Stop",
        "latitude": 12.9547,
        "longitude": 77.6074
      },
      {
        "name": "Mahatma Gandhi Road Metro Station",
        "type": "Nearest Connecting Purple Line Station",
        "latitude": 12.9747,
        "longitude": 77.6053
      },
      {
        "name": "Lakkasandra Metro Station Facility",
        "type": "Accessible Upcoming Pink Line Transit Stop",
        "latitude": 12.9481,
        "longitude": 77.6041
      }
    ]
  },
  {
    "location": "shivajinagar",
    "latitude": 12.9857,
    "longitude": 77.5996,
    "landmarks": [
      {
        "name": "St. Mary's Basilica",
        "description": "A magnificent, historic Gothic-style minor basilica universally celebrated for its towering spires and annual feast.",
        "latitude": 12.9846,
        "longitude": 77.6024
      },
      {
        "name": "Russell Market Complex",
        "description": "An iconic, British-built heritage indoor market architecture anchoring fresh wholesale flora, fruit, and meat trades since 1927.",
        "latitude": 12.9858,
        "longitude": 77.6011
      },
      {
        "name": "Bowring & Lady Curzon Hospital Campus",
        "description": "A colossal, centuries-old medical teaching hospital facility grounding central public healthcare networks.",
        "latitude": 12.9839,
        "longitude": 77.6001
      },
      {
        "name": "Chinnaswamy Stadium Northern Rim",
        "description": "The prominent geographical boundary flanking India's premier historic cricket stadium facility.",
        "latitude": 12.9798,
        "longitude": 77.5989
      }
    ],
    "food_and_shopping": [
      {
        "name": "Shivajinagar Beef & Kebab Street Alley",
        "type": "Famous Historical Late-Night Mughlai Street Food District",
        "latitude": 12.9863,
        "longitude": 77.5998
      },
      {
        "name": "Imperial Restaurant Shivajinagar",
        "type": "Classic Heritage Mughlai & Biryani Family Diner",
        "latitude": 12.9854,
        "longitude": 77.599
      },
      {
        "name": "Taj Sulaiman Tea Stall",
        "type": "Legendary Traditional Sulaimani Tea & Snack Counter",
        "latitude": 12.9859,
        "longitude": 77.6004
      },
      {
        "name": "Meena Bazaar Apparel District",
        "type": "Dense Traditional Indian Bridal & Ethnic Textile Market",
        "latitude": 12.9849,
        "longitude": 77.5998
      }
    ],
    "transport": [
      {
        "name": "Shivajinagar Bus TTMC Terminus",
        "type": "Massive Central City BMTC Operations Depot & Hub",
        "latitude": 12.9856,
        "longitude": 77.5987
      },
      {
        "name": "Shivajinagar Metro Station",
        "type": "Major Pink Line Underground Metro Infrastructure",
        "latitude": 12.9853,
        "longitude": 77.5979
      },
      {
        "name": "Cantonment Railway Station Terminal",
        "type": "Immediate Nearby Suburban & National Rail Terminal",
        "latitude": 12.993,
        "longitude": 77.5979
      },
      {
        "name": "Cubbon Park Metro Station Access",
        "type": "Accessible Connecting Purple Line Facility",
        "latitude": 12.981,
        "longitude": 77.5965
      }
    ]
  },
  {
    "location": "ulsoor",
    "latitude": 12.9779,
    "longitude": 77.6247,
    "landmarks": [
      {
        "name": "Ulsoor Lake & Island Eco-Wetlands",
        "description": "One of Bangalore's largest and oldest historical military-adjacent water bodies, featuring active boating and military regatta docks.",
        "latitude": 12.9812,
        "longitude": 77.6179
      },
      {
        "name": "Sri Someshwara Swamy Chola Temple",
        "description": "A breathtaking heritage monument tracing back architectural roots to the Chola Dynasty era, honoring Lord Shiva.",
        "latitude": 12.9749,
        "longitude": 77.6256
      },
      {
        "name": "Madras Sappers (MEG & Centre) Memorial Gate",
        "description": "The highly fortified visual entry landmark to the expansive historical military regiment training lands.",
        "latitude": 12.9788,
        "longitude": 77.6198
      },
      {
        "name": "Gurdwara Sri Guru Singh Sabha Complex",
        "description": "A stunning, white-domed spiritual monument and largest Sikh shrine in Bangalore, perched cleanly along the lake rim.",
        "latitude": 12.9822,
        "longitude": 77.6189
      }
    ],
    "food_and_shopping": [
      {
        "name": "Lido Mall Area Sector",
        "type": "Modern Shopping Mall & Multiplex Hub",
        "latitude": 12.9747,
        "longitude": 77.6206
      },
      {
        "name": "Urban Solace cafe",
        "type": "Lakeside Creative Arts, Poetry & Breakfast Café",
        "latitude": 12.981,
        "longitude": 77.6194
      },
      {
        "name": "Nandhini Deluxe Ulsoor",
        "type": "Traditional Andhra Spicy Non-Veg Fine Dining",
        "latitude": 12.9754,
        "longitude": 77.6244
      },
      {
        "name": "Ulsoor Bazaar Market Lane",
        "type": "Traditional Domestic Hardware & Pottery Market Strip",
        "latitude": 12.9751,
        "longitude": 77.6264
      }
    ],
    "transport": [
      {
        "name": "Halasuru (Ulsoor) Metro Station",
        "type": "Elevated Transit Corridor Facility (Purple Line)",
        "latitude": 12.976,
        "longitude": 77.6264
      },
      {
        "name": "Trinity Metro Station Interchange",
        "type": "Immediate Purple Line Elevated Metro Stop",
        "latitude": 12.9731,
        "longitude": 77.6174
      },
      {
        "name": "Ulsoor Police Station Bus Stop",
        "type": "Arterial Highway Corridor Bus Platform",
        "latitude": 12.9758,
        "longitude": 77.6229
      },
      {
        "name": "Sir M. Visvesvaraya Terminal (SMVB)",
        "type": "Accessible Premium Air-Conditioned Railway Terminal",
        "latitude": 13.0034,
        "longitude": 77.6521
      }
    ]
  },
  {
    "location": "frazer town",
    "latitude": 12.9968,
    "longitude": 77.6124,
    "landmarks": [
      {
        "name": "Coles Park (Freedom Fighter's Park)",
        "description": "A legendary British-era public park framework outfitted with inclusive senior trails, musical fountains, and skating courts.",
        "latitude": 12.9979,
        "longitude": 77.6111
      },
      {
        "name": "St. Francis Xavier's Cathedral Monument",
        "description": "A grand, visually dominant European architectural cathedral masterpiece sporting an iconic massive granite dome structure.",
        "latitude": 12.9918,
        "longitude": 77.6118
      },
      {
        "name": "Albert Bakery Lane",
        "description": "The historic, centuries-old baking landmark institution universally sought out for seasonal mutton keema samosas.",
        "latitude": 12.9984,
        "longitude": 77.6158
      },
      {
        "name": "Pulikeshi Nagar Police Circle",
        "description": "The core heritage crossroad architecture guiding residential vectors across the old town map.",
        "latitude": 12.9958,
        "longitude": 77.6157
      }
    ],
    "food_and_shopping": [
      {
        "name": "Mosque Road Food Street Corridor",
        "type": "India-Famous Ramadan & Seasonal Mughlai Meat Gourmet Strip",
        "latitude": 12.9981,
        "longitude": 77.6154
      },
      {
        "name": "Empire Restaurant Frazer Town",
        "type": "Late-Night Mughlai Non-Veg Casual Diner Room",
        "latitude": 12.9972,
        "longitude": 77.6152
      },
      {
        "name": "Thom's Bakery & Supermarket",
        "type": "Legacy Elite Plum-Cake & Anglo-Indian Grocery Institution",
        "latitude": 12.9913,
        "longitude": 77.6159
      },
      {
        "name": "Chichaba's Taj Restaurant",
        "type": "Traditional Vintage Charcoal-Grill Deccani Biryani Hub",
        "latitude": 12.9976,
        "longitude": 77.615
      }
    ],
    "transport": [
      {
        "name": "Bangalore Cantonment Railway Station",
        "type": "Major National & Suburban Passenger Rail Interchange",
        "latitude": 12.993,
        "longitude": 77.5979
      },
      {
        "name": "Coles Park BMTC Bus Stop Station",
        "type": "Central Neighborhood Arterial Bus Node",
        "latitude": 12.9974,
        "longitude": 77.611
      },
      {
        "name": "Pottery Town Metro Station",
        "type": "Nearby Underground Pink Line Transit Facility",
        "latitude": 13.0016,
        "longitude": 77.6074
      },
      {
        "name": "Shivajinagar Bus TTMC Complex Link",
        "type": "Connecting Central Regional Bus Exchange",
        "latitude": 12.9856,
        "longitude": 77.5987
      }
    ]
  },
  {
    "location": "cunningham road",
    "latitude": 12.9872,
    "longitude": 77.5959,
    "landmarks": [
      {
        "name": "Jawaharlal Nehru Planetarium Complex",
        "description": "A premier scientific public astronomical observatory center featuring a state-of-the-art sky theater dome landscape.",
        "latitude": 12.9849,
        "longitude": 77.5892
      },
      {
        "name": "Sigma Central Mall Multi-Tower",
        "description": "A long-standing corporate lifestyle hub structure anchoring modern multiplex entertainment lines.",
        "latitude": 12.9866,
        "longitude": 77.5947
      },
      {
        "name": "National Gallery of Modern Art (NGMA) Border",
        "description": "A heritage heritage mansion property housing exquisite heritage national artwork collections within peaceful garden spaces.",
        "latitude": 12.9892,
        "longitude": 77.5919
      },
      {
        "name": "Chandralok Civic Roundabout",
        "description": "The high-volume boutique street intersection node mapping classic central business layouts.",
        "latitude": 12.9877,
        "longitude": 77.5976
      }
    ],
    "food_and_shopping": [
      {
        "name": "Toit / Windmills Central Franchise Hubs",
        "type": "Premium Microbrewery & Gastropub Lounge Zone",
        "latitude": 12.9791,
        "longitude": 77.5934
      },
      {
        "name": "Fat Buddha Restaurant",
        "type": "Upscale Premium Pan-Asian Fine Dining Bistro",
        "latitude": 12.9873,
        "longitude": 77.596
      },
      {
        "name": "Infinitea Tea Room & Brasserie",
        "type": "Gourmet International Tea Sommelier Specialty Lounge",
        "latitude": 12.9872,
        "longitude": 77.5956
      },
      {
        "name": "Hatworks Boulevard Retail Oasis",
        "type": "Heritage Colonial Villa Luxury Boutique Shopping Alley",
        "latitude": 12.988,
        "longitude": 77.5966
      }
    ],
    "transport": [
      {
        "name": "Cunningham Road Highway Bus stop",
        "type": "Arterial City Business District Bus Bay",
        "latitude": 12.9872,
        "longitude": 77.5958
      },
      {
        "name": "Cubbon Park Metro Station Terminal",
        "type": "Nearest Elevated Purple Line Metro Platform",
        "latitude": 12.981,
        "longitude": 77.5965
      },
      {
        "name": "Cantonment Railway Station Infrastructure",
        "type": "Immediate Nearby Intercity Train Station Hub",
        "latitude": 12.993,
        "longitude": 77.5979
      },
      {
        "name": "Raj Bhavan Metro Station Stop",
        "type": "Accessible Upcoming Underground Pink Line Facility",
        "latitude": 12.9861,
        "longitude": 77.5917
      }
    ]
  },
  {
    "location": "residency road",
    "latitude": 12.9698,
    "longitude": 77.6015,
    "landmarks": [
      {
        "name": "St. Joseph's University Main Campus",
        "description": "A monumental, heritage academic campus landmark anchoring the central business district's intellectual skyline.",
        "latitude": 12.9649,
        "longitude": 77.5973
      },
      {
        "name": "Bishop Cotton Boys' School Estate",
        "description": "A sprawling, globally celebrated legacy campus establishing elite academic layouts since 1865.",
        "latitude": 12.9678,
        "longitude": 77.5998
      },
      {
        "name": "Mayo Hall Civic Monument",
        "description": "A magnificent Florentine-style heritage municipal landmark building honoring Lord Mayo, offering sweeping urban vistas.",
        "latitude": 12.9743,
        "longitude": 77.608
      },
      {
        "name": "Good Shepherd Convent Grounds",
        "description": "A massive institutional heritage landscape framing the southern edge of the busy thoroughfare.",
        "latitude": 12.9667,
        "longitude": 77.6033
      }
    ],
    "food_and_shopping": [
      {
        "name": "The Bangalore Club Dining Rooms",
        "type": "Ultra-Exclusive Colonial Heritage Elite Social Lounge",
        "latitude": 12.9669,
        "longitude": 77.5965
      },
      {
        "name": "Karavalli Restaurant",
        "type": "Acclaimed Premium Coastal Indian Heritage Fine Dining",
        "latitude": 12.9689,
        "longitude": 77.6041
      },
      {
        "name": "Arbor Brewing Company (ABC)",
        "type": "Famous Pioneer American-Style Microbrewery & Gastropub",
        "latitude": 12.9701,
        "longitude": 77.6038
      },
      {
        "name": "Garuda Mall Residency Proximity",
        "type": "Mega Premium Lifestyle Shopping & Retail Mall",
        "latitude": 12.9701,
        "longitude": 77.6084
      }
    ],
    "transport": [
      {
        "name": "Residency Road Central Bus Stop",
        "type": "Primary Arterial One-Way BMTC Commuter Platform",
        "latitude": 12.9697,
        "longitude": 77.6014
      },
      {
        "name": "Mahatma Gandhi Road Metro Hub",
        "type": "Immediate Connecting Purple Line Metro Facility",
        "latitude": 12.9747,
        "longitude": 77.6053
      },
      {
        "name": "Richmond Circle Intersection Traffic Bay",
        "type": "Connecting Central Multi-Modal Transit Crossing",
        "latitude": 12.9618,
        "longitude": 77.5969
      },
      {
        "name": "Krantivira Sangolli Rayanna Railway Terminal",
        "type": "Accessible Premier Intercity Rail Infrastructure",
        "latitude": 12.9781,
        "longitude": 77.5697
      }
    ]
  },
  {
    "location": "commercial street",
    "latitude": 12.9822,
    "longitude": 77.6083,
    "landmarks": [
      {
        "name": "Commercial Street Main Entry Archway",
        "description": "The iconic geographical reference entrance structure welcoming massive global foot-traffic crowds daily.",
        "latitude": 12.9818,
        "longitude": 77.6051
      },
      {
        "name": "Tasker Town Old Mosque Monument",
        "description": "A culturally deep, visually striking religious landmark standing embedded in the dense commercial core.",
        "latitude": 12.9836,
        "longitude": 77.6074
      },
      {
        "name": "Bowring Hospital Outer Plaza Lane",
        "description": "The historic public boundary corridor matching older retail grids with healthcare fields.",
        "latitude": 12.9831,
        "longitude": 77.6022
      },
      {
        "name": "Kamraj Road Intersection Square",
        "description": "The primary high-volume avenue intersection routing shoppers safely into internal retail lanes.",
        "latitude": 12.9824,
        "longitude": 77.6095
      }
    ],
    "food_and_shopping": [
      {
        "name": "Woody's Restaurant Commercial Street",
        "type": "Classic Traditional South Indian Vegetarian Diner Room",
        "latitude": 12.9828,
        "longitude": 77.6062
      },
      {
        "name": "Anand Sweets and Savouries",
        "type": "Premium Traditional Indian Confectionery & Chaat Hub",
        "latitude": 12.9821,
        "longitude": 77.6078
      },
      {
        "name": "Dupion Silk & Sari Retail Houses",
        "type": "World-Famous Indian Wedding Textile Shopping District",
        "latitude": 12.9823,
        "longitude": 77.6071
      },
      {
        "name": "Street Shopping Flea Alley Clusters",
        "type": "High-Volume Bargain Fashion Accessory & Footwear Market",
        "latitude": 12.9822,
        "longitude": 77.608
      }
    ],
    "transport": [
      {
        "name": "Commercial Street Bus Stop Terminal",
        "type": "Central Retail District BMTC Stop Platform",
        "latitude": 12.9821,
        "longitude": 77.6052
      },
      {
        "name": "Shivajinagar Bus TTMC Depot Exchange",
        "type": "Immediate Nearby Regional Transit Bus Terminal",
        "latitude": 12.9856,
        "longitude": 77.5987
      },
      {
        "name": "Mahatma Gandhi Road Metro Station Facility",
        "type": "Nearest Connecting Purple Line Transit Station",
        "latitude": 12.9747,
        "longitude": 77.6053
      },
      {
        "name": "Cantonment Rail Junction Station",
        "type": "Accessible Commuter Rail Link Access",
        "latitude": 12.993,
        "longitude": 77.5979
      }
    ]
  },
  {
    "location": "majestic",
    "latitude": 12.9779,
    "longitude": 77.5731,
    "landmarks": [
      {
        "name": "Kempegowda Bus Station (Majestic Terminal)",
        "description": "The legendary, absolute geographic transport epicenter of Karnataka, historically built over the old Dharmambudhi Lake bed.",
        "latitude": 12.9779,
        "longitude": 77.5731
      },
      {
        "name": "Krantivira Sangolli Rayanna (KSR) Rail Junction",
        "description": "The foundational primary railway station infrastructure terminal serving millions of intercity travelers across India.",
        "latitude": 12.9781,
        "longitude": 77.5697
      },
      {
        "name": "Sangam & Santosh Cinema Theaters Ground",
        "description": "Historic, massive silver-screen entertainment monuments that anchored regional Kannada cinema industry roots for decades.",
        "latitude": 12.9772,
        "longitude": 77.575
      },
      {
        "name": "Gubbi Thotadappa Chattras Foundation",
        "description": "A historic charity inn landmark facility providing subsidized social lodging since early municipal railway setups.",
        "latitude": 12.9765,
        "longitude": 77.5714
      }
    ],
    "food_and_shopping": [
      {
        "name": "National Market & Burma Bazaar",
        "type": "Famous Traditional Electronic & Imported Grey-Market Arcade",
        "latitude": 12.9788,
        "longitude": 77.5746
      },
      {
        "name": "Sukh Sagar Vegetarian Diner",
        "type": "Iconic High-Volume North Indian Vegetarian Casual Restaurant",
        "latitude": 12.9775,
        "longitude": 77.5751
      },
      {
        "name": "Hotel Sanman Deluxe Meals",
        "type": "Traditional Karnataka Style Banana-Leaf Meals Diner",
        "latitude": 12.9754,
        "longitude": 77.5719
      },
      {
        "name": "Chikkapet Wholesale Saree Bazaar Proximity",
        "type": "Massive Historic Textile & Apparel Wholesale District",
        "latitude": 12.9694,
        "longitude": 77.5741
      }
    ],
    "transport": [
      {
        "name": "Nadaprabhu Kempegowda Station (Majestic Interchange)",
        "type": "Bangalore's Largest Underground Dual-Line Metro Interchange Hub (Purple & Green Lines)",
        "latitude": 12.9757,
        "longitude": 77.5729
      },
      {
        "name": "Kempegowda BMTC City Bus Terminal",
        "type": "Primary Intra-City Public Bus Terminal Fleet Hub",
        "latitude": 12.9782,
        "longitude": 77.5733
      },
      {
        "name": "KSR Bengaluru Central Railway Station",
        "type": "Major Interstate National Railway Network Terminus",
        "latitude": 12.9781,
        "longitude": 77.5697
      },
      {
        "name": "Majestic KSRTC Inter-State Bus Stand",
        "type": "Massive Long-Distance State Express Transport Terminal",
        "latitude": 12.9776,
        "longitude": 77.5718
      }
    ]
  },
  {
    "location": "attibele",
    "latitude": 12.7792,
    "longitude": 77.7712,
    "landmarks": [
      {
        "name": "Attibele Toll Plaza Corridor",
        "description": "The massive, high-volume gateway infrastructure on the Bengaluru-Hosur National Highway (NH 44) marking the official interstate border between Karnataka and Tamil Nadu.",
        "latitude": 12.7794,
        "longitude": 77.7741
      },
      {
        "name": "Attibele Industrial Area Block",
        "description": "A rapidly growing manufacturing zone home to a high density of automobile components, textile processing plants, and heavy engineering units.",
        "latitude": 12.7885,
        "longitude": 77.7652
      },
      {
        "name": "Muthurajendran Hillock Temple",
        "description": "A prominent, peaceful neighborhood spiritual shrine that serves as an old-growth geographic and cultural reference for local residential communities.",
        "latitude": 12.7758,
        "longitude": 77.7684
      },
      {
        "name": "Kondathur Eco-Lake Basin",
        "description": "A vast, serene natural wetland body on the suburban fringe that attracts seasonal migratory birds and local nature enthusiasts.",
        "latitude": 12.7912,
        "longitude": 77.7815
      }
    ],
    "food_and_shopping": [
      {
        "name": "Hosur Road Wholesale Border Market",
        "type": "Bustling Commercial Strip for Inter-State Spices, Hardware, and Daily Produce",
        "latitude": 12.7798,
        "longitude": 77.7725
      },
      {
        "name": "Sri Krishna Sagar Attibele",
        "type": "High-Volume Highway Commuter Stop for Quick South Indian Tiffin & Filter Coffee",
        "latitude": 12.7785,
        "longitude": 77.7698
      },
      {
        "name": "Ravi Darshini Veg Comfort",
        "type": "Casual Neighborhood Diner Serving Traditional Karnataka Rice Meals and Dosas",
        "latitude": 12.7774,
        "longitude": 77.7665
      },
      {
        "name": "Attibele High Street Garment Outlets",
        "type": "Budget-Friendly Factory Retail Outlets for Apparel and Industrial Workwear",
        "latitude": 12.7789,
        "longitude": 77.7681
      }
    ],
    "transport": [
      {
        "name": "Attibele BMTC Bus Terminus",
        "type": "Major Peripheral Transport Hub Connecting the Border to Bengaluru Central",
        "latitude": 12.7779,
        "longitude": 77.7675
      },
      {
        "name": "Attibele Toll Plaza Inter-State Bus Bay",
        "type": "Critical Boarding Point for Long-Distance KSRTC and Private Tamil Nadu Liners",
        "latitude": 12.7795,
        "longitude": 77.7738
      },
      {
        "name": "Silk Board / Electronic City Metro Link",
        "type": "Accessible Transit Connection via Elevated Highway Bus Routing",
        "latitude": 12.8494,
        "longitude": 77.6762
      },
      {
        "name": "Heelalige Railway Station",
        "type": "Nearby Suburban Suburban Commuter Rail Stop for Local Passenger Trains",
        "latitude": 12.8122,
        "longitude": 77.7126
      }
    ]
  },
  {
    "location": "sarjapura",
    "latitude": 12.8574,
    "longitude": 77.7881,
    "landmarks": [
      {
        "name": "Sarjapura Old Village Square",
        "description": "The historic, traditional core of the layout that anchors the heritage settlement before its transformation into a major tech-residential hub.",
        "latitude": 12.857,
        "longitude": 77.7885
      },
      {
        "name": "Sompura Gate Intersection Node",
        "description": "The busy, critical geographical junction connecting the old town highway directly with emerging IT corridor lanes.",
        "latitude": 12.8804,
        "longitude": 77.7689
      },
      {
        "name": "Azim Premji University (APU) Campus Area",
        "description": "The expansive, state-of-the-art educational and research institutional landscape dominating the green suburban horizon.",
        "latitude": 12.8488,
        "longitude": 77.772
      },
      {
        "name": "Chikka Tirupati Temple Proximity",
        "description": "A culturally monumental and ancient Vishnu shrine located just off the outer layout limits, drawing massive weekend footfalls.",
        "latitude": 12.8986,
        "longitude": 77.8681
      }
    ],
    "food_and_shopping": [
      {
        "name": "D-Mart Sarjapura Main Road",
        "type": "Massive Multi-Tier Hypermarket Destination for Domestic Household Goods",
        "latitude": 12.8912,
        "longitude": 77.7554
      },
      {
        "name": "Sarjapura Weekly Farmer Santhe",
        "type": "Vibrant, Traditional Open-Air Sunday Market for Organic Fresh Vegetables and Local Crafts",
        "latitude": 12.8582,
        "longitude": 77.7876
      },
      {
        "name": "The Fisherman's Wharf Proximity",
        "type": "Premium, Open-Air Heritage Seafood and Multi-Cuisine Concept Restaurant",
        "latitude": 12.9124,
        "longitude": 77.6811
      },
      {
        "name": "BTR Plaza Commercial High Street",
        "type": "Modern Lifestyle Hub Featuring Specialty Cafes, Bakeries, and Fitness Centers",
        "latitude": 12.8615,
        "longitude": 77.7842
      }
    ],
    "transport": [
      {
        "name": "Sarjapura Central BMTC Bus Stand",
        "type": "Primary Suburban Terminal Dispatching Direct Routes to IT Hubs and Majestic",
        "latitude": 12.8566,
        "longitude": 77.7892
      },
      {
        "name": "Sompura Gate Main Highway Bus Stop",
        "type": "Arterial Outer Ring Road Connection Point for Commuter Express Buses",
        "latitude": 12.8801,
        "longitude": 77.7686
      },
      {
        "name": "Carmelaram Railway Station Terminal",
        "type": "Accessible Commuter Rail Link Hosting Daily Intercity Suburban Trains",
        "latitude": 12.9126,
        "longitude": 77.7018
      },
      {
        "name": "Kallugopahalli Metro Project Corridor",
        "type": "Proposed Future Phase Transit Extension Corridor Network",
        "latitude": 12.8645,
        "longitude": 77.7612
      }
    ]
  },
  {
    "location": "hoskote",
    "latitude": 13.0697,
    "longitude": 77.7982,
    "landmarks": [
      {
        "name": "Hoskote Lake Bird Sanctuary Basin",
        "description": "An exceptionally vast, historic man-made lake bed celebrated globally by ornithologists as a major seasonal habitat for migratory birds.",
        "latitude": 13.0642,
        "longitude": 77.7761
      },
      {
        "name": "Ancient Avimukteshwara Temple Shrines",
        "description": "A heritage temple complex featuring exquisite Chola-era stone pillars, standing as the cultural anchor of the historic town.",
        "latitude": 13.0684,
        "longitude": 77.7995
      },
      {
        "name": "Hoskote Industrial Area Mega Estate",
        "description": "A colossal manufacturing manufacturing zone housing major multi-national logistics backbones and heavy automotive factories.",
        "latitude": 13.0852,
        "longitude": 77.8341
      },
      {
        "name": "MVJ Medical College and Research Hospital",
        "description": "A massive, multi-acre super-specialty medical campus acting as the premier healthcare destination for eastern Bengaluru suburbs.",
        "latitude": 13.0615,
        "longitude": 77.8188
      }
    ],
    "food_and_shopping": [
      {
        "name": "Hoskote Biryani Street (Legendary Early Morning Hubs)",
        "type": "World-Famous Weekend Culinary Strip Serving Iconic Dum Mutton Biryani at 4:00 AM",
        "latitude": 13.0722,
        "longitude": 77.7946
      },
      {
        "name": "Sri Guru Nalapaka Restaurant",
        "type": "Highly Popular Highway Multi-Cuisine Hub Famous for South Indian Rice Platters",
        "latitude": 13.0689,
        "longitude": 77.7891
      },
      {
        "name": "Sagar Traditional Craft and Gift Center",
        "type": "Legacy Local Bazaar for Regional Souvenirs, Handloom Linens, and Pottery",
        "latitude": 13.0691,
        "longitude": 77.7974
      },
      {
        "name": "Hoskote Old Town Commercial Market",
        "type": "Traditional Trade Alley for Wholesale Spices, Grains, and Festive Hardware",
        "latitude": 13.0678,
        "longitude": 77.7989
      }
    ],
    "transport": [
      {
        "name": "Hoskote KSRTC Regional Bus Terminal",
        "type": "Major Inter-District Transit Terminal Connecting East Karnataka to the Capital",
        "latitude": 13.0694,
        "longitude": 77.7958
      },
      {
        "name": "NH 75 National Highway Toll Access Bay",
        "type": "High-Speed Logistics and Passenger Express Bus Corridor Intersection",
        "latitude": 13.0655,
        "longitude": 77.7682
      },
      {
        "name": "Whitefield Kadugodi Metro Station Proximity",
        "type": "Nearest Operational Metro Hub (Purple Line) via Direct Connecting Highway Roads",
        "latitude": 12.9986,
        "longitude": 77.7607
      },
      {
        "name": "Whitefield Railway Junction Facility",
        "type": "Accessible Intercity Express Rail Station Network Link",
        "latitude": 13.0034,
        "longitude": 77.7523
      }
    ]
  },
  {
    "location": "nelamangala",
    "latitude": 13.0953,
    "longitude": 77.3914,
    "landmarks": [
      {
        "name": "Vishwa Shanti Ashram Eco-Campus",
        "description": "A grand, landscaped spiritual sanctuary featuring a monumental golden chariot sculpture and tranquil meditation fields.",
        "latitude": 13.0784,
        "longitude": 77.4246
      },
      {
        "name": "Nijagal Betta Trekking Hillock",
        "description": "A rugged, historic hill station containing ruins of an ancient fort and cave shrines, drawing weekend adventure trekkers.",
        "latitude": 13.1558,
        "longitude": 77.2435
      },
      {
        "name": "Harsha Hospital Trauma Specialization Center",
        "description": "A premier healthcare landmark on the Tumkur Highway, widely recognized for advanced emergency medical care.",
        "latitude": 13.0995,
        "longitude": 77.3972
      },
      {
        "name": "Kuduregere Lake Eco-Reserve",
        "description": "A picturesque, 300-acre freshwater reservoir lined with green walking pathways and community nature parks.",
        "latitude": 13.0721,
        "longitude": 77.4589
      }
    ],
    "food_and_shopping": [
      {
        "name": "Hotel Sri Udupi Vaibhav Highway Hub",
        "type": "Massive, High-Volume Highway Dining Stop Famous for Crispy Masala Dosas",
        "latitude": 13.0974,
        "longitude": 77.3941
      },
      {
        "name": "Shri Nandi Vaibhav Multi-Cuisine Diner",
        "type": "Popular Family Restaurant Serving Traditional North Indian and Karnataka Dishes",
        "latitude": 13.0961,
        "longitude": 77.3922
      },
      {
        "name": "Sarvamangala Traditional Textile Market",
        "type": "Heritage Shopping Lane for Regional Cottons, Handlooms, and Wedding Attire",
        "latitude": 13.0945,
        "longitude": 77.3905
      },
      {
        "name": "Chandu Dhaba Highway Corridor",
        "type": "Rustic, Authentic Open-Air Culinary Spot for Spicy Curries and Fresh Tandoori Rotis",
        "latitude": 13.1022,
        "longitude": 77.3824
      }
    ],
    "transport": [
      {
        "name": "Nelamangala Central Bus Stop Terminal",
        "type": "Integrated Regional Transport Hub Operating Regular High-Frequency BMTC/KSRTC Routes",
        "latitude": 13.0955,
        "longitude": 77.3919
      },
      {
        "name": "Nelamangala Passenger Railway Station",
        "type": "Suburban Commuter Rail Stop Connecting to Central City Stations",
        "latitude": 13.1006,
        "longitude": 77.3784
      },
      {
        "name": "Madavara Metro Station Link (BIEC)",
        "type": "Nearest Elevated Metro Transit Terminus (Green Line Extension)",
        "latitude": 13.0536,
        "longitude": 77.4746
      },
      {
        "name": "Kempalinganahalli Cross Highway Junction",
        "type": "Arterial Bus Stop Routing Long-Distance Liners onto the Mumbai Highway",
        "latitude": 13.1044,
        "longitude": 77.3615
      }
    ]
  },
  {
    "location": "doddaballapur",
    "latitude": 13.2922,
    "longitude": 77.5428,
    "landmarks": [
      {
        "name": "Doddaballapur Silk Weaving Industrial Clusters",
        "description": "The world-famous textile heritage manufacturing blocks housing traditional power looms that drive regional silk trade.",
        "latitude": 13.2985,
        "longitude": 77.5385
      },
      {
        "name": "Ghati Subramanya Temple Sanctuary",
        "description": "A globally renowned, ancient pilgrimage temple complex featuring a unique dual-deity monolithic idol carved in stone.",
        "latitude": 13.3862,
        "longitude": 77.5218
      },
      {
        "name": "Makalidurga Fort Hillock Ridge",
        "description": "An iconic, historic mountain fortress overlooking an alpine rail curve, serving as a legendary trekking trail.",
        "latitude": 13.4355,
        "longitude": 77.5012
      },
      {
        "name": "Doddaballapur BDA Integrated Town Grid",
        "description": "The meticulously planned public layout system anchoring the expansion of the northern industrial satellite city region.",
        "latitude": 13.2842,
        "longitude": 77.551
      }
    ],
    "food_and_shopping": [
      {
        "name": "Doddaballapur Heritage Silk Saree Cooperatives",
        "type": "Wholesale Outlets for Pure Silk Handloom Sarees Direct from Master Weavers",
        "latitude": 13.2941,
        "longitude": 77.5402
      },
      {
        "name": "Hotel Shanti Sagar Doddaballapur",
        "type": "Classic Regional Diner Serving Authentic Karnataka Breakfasts and Filter Coffee",
        "latitude": 13.2915,
        "longitude": 77.5421
      },
      {
        "name": "Sri Venkateshwara Sweet Stall legacy",
        "type": "Popular Local Confectionery Shop Celebrated for Traditional South Indian Ghee Sweets",
        "latitude": 13.2928,
        "longitude": 77.5434
      },
      {
        "name": "Doddaballapur Main Road Wholesale Bazaar",
        "type": "Bustling Central Street for Agricultural Tools, Domestic Goods, and Local Grain Trade",
        "latitude": 13.2936,
        "longitude": 77.5415
      }
    ],
    "transport": [
      {
        "name": "Doddaballapur Railway Passenger Station",
        "type": "Major Intercity Rail Platform Linking Central Bengaluru to Northern India Routes",
        "latitude": 13.2844,
        "longitude": 77.5252
      },
      {
        "name": "Doddaballapur Central KSRTC Bus Depot",
        "type": "Massive Regional Bus Interchange Connecting Satellite Towns to Bengaluru City",
        "latitude": 13.2908,
        "longitude": 77.5446
      },
      {
        "name": "Yelahanka Junction Railway Terminus Proximity",
        "type": "Accessible Major Rail Intersection and Suburban Commuter Terminal",
        "latitude": 13.1008,
        "longitude": 77.5961
      },
      {
        "name": "Kempegowda International Airport Access Highway",
        "type": "Arterial State Highway Route Offering Direct Fast Connectivity to the Airport",
        "latitude": 13.2561,
        "longitude": 77.6114
      }
    ]
  },
  {
    "location": "kengeri satellite town",
    "latitude": 12.9178,
    "longitude": 77.4836,
    "landmarks": [
      {
        "name": "Kengeri Satellite Town Housing Projects (KHB)",
        "description": "A massive, old-growth housing grid layout built by the Karnataka Housing Board that pioneered early suburban expansion in western Bengaluru.",
        "latitude": 12.9246,
        "longitude": 77.4789
      },
      {
        "name": "Kengeri Lake Rejuvenation Eco-Reserve",
        "description": "A vast, beautiful natural body of freshwater outfitted with walking decks, boating infrastructure, and landscaped bunds.",
        "latitude": 12.9161,
        "longitude": 77.4878
      },
      {
        "name": "Sri Gavi Gangadhareshwara Temple Branch Shrines",
        "description": "An ancient, culturally significant stone-cave temple landmark anchoring old village heritage lines inside the modern town layout.",
        "latitude": 12.9136,
        "longitude": 77.4844
      },
      {
        "name": "NICE Road Mysore Road Interchange Circle",
        "description": "A massive high-speed concrete expressway intersection loop linking southwestern residential sectors to electronic city and industrial areas.",
        "latitude": 12.8935,
        "longitude": 77.4697
      }
    ],
    "food_and_shopping": [
      {
        "name": "Kengeri Traditional Produce Santhe Markets",
        "type": "Historic Weekly Open-Air Wholesale Farmers Market for Local Domestic Produce and Groceries",
        "latitude": 12.9142,
        "longitude": 77.4819
      },
      {
        "name": "Adyar Ananda Bhavan (A2B) Kengeri Highway",
        "type": "Colossal Expressway Commuter Vegetarian Resto-Hub, Sweets Counter & Bakery",
        "latitude": 12.9038,
        "longitude": 77.4721
      },
      {
        "name": "Sri Krishna Garden Veg Restaurant",
        "type": "Casual Neighborhood Family Multi-Cuisine Vegetarian Dining Room",
        "latitude": 12.9125,
        "longitude": 77.4831
      },
      {
        "name": "Decathlon Mysore Road Kengeri Proximity",
        "type": "Mega Sports Equipment Flagship Retail Store & Experience Warehouse",
        "latitude": 12.8988,
        "longitude": 77.4682
      }
    ],
    "transport": [
      {
        "name": "Kengeri Metro Station Terminal",
        "type": "Elevated High-Traffic Highway Access Node on the Purple Line Corridor",
        "latitude": 12.9179,
        "longitude": 77.4834
      },
      {
        "name": "Kengeri TTMC Bus Terminal",
        "type": "Massive Multi-Tier Inter-District and Local BMTC Bus Interchange Hub",
        "latitude": 12.9157,
        "longitude": 77.4824
      },
      {
        "name": "Kengeri Railway Station Terminal Base",
        "type": "Major Intercity National Express Train Passenger Rail Platform Linking to Mysuru",
        "latitude": 12.9097,
        "longitude": 77.4811
      },
      {
        "name": "Challaghatta Metro Station Platform",
        "type": "Immediate Nearby Western Terminus of the Purple Line Metro Network",
        "latitude": 12.9114,
        "longitude": 77.4652
      }
    ]
  },
  {
    "location": "hebbal",
    "latitude": 13.0354,
    "longitude": 77.5988,
    "landmarks": [
      {
        "name": "Hebbal Flyover Engineering Network",
        "description": "A massive, multi-tiered maze of concrete flyovers and loops that serves as the iconic northern gateway to Bengaluru and the airport corridor.",
        "latitude": 13.0358,
        "longitude": 77.5975
      },
      {
        "name": "Hebbal Lake & Bird Sanctuary",
        "description": "A historic, expansive freshwater lake featuring well-maintained walking paths and treated wetland zones that host hundreds of migratory bird species.",
        "latitude": 13.0381,
        "longitude": 77.5878
      },
      {
        "name": "Manyata Tech Park (Southern Gate)",
        "description": "The major entry point to one of India's largest and most high-density information technology software parks.",
        "latitude": 13.0322,
        "longitude": 77.6185
      },
      {
        "name": "Baptist Hospital Campus",
        "description": "A long-standing, trusted multi-specialty healthcare institution serving as a primary medical anchor for North Bengaluru since the 1970s.",
        "latitude": 13.0304,
        "longitude": 77.5956
      }
    ],
    "food_and_shopping": [
      {
        "name": "Esteem Mall",
        "type": "Legacy Highway Retail Shopping & Entertainment Arcade",
        "latitude": 13.0392,
        "longitude": 77.5947
      },
      {
        "name": "The Druid Garden",
        "type": "Premium Multi-Level Open-Air Craft Brewery & Global Fine Dining Restaurant",
        "latitude": 13.0328,
        "longitude": 77.5876
      },
      {
        "name": "Udupi Garden Hebbal",
        "type": "High-Volume Traditional South Indian Vegetarian Quick-Service Eatery",
        "latitude": 13.0365,
        "longitude": 77.5932
      },
      {
        "name": "Chairman's Resort Fine Dining",
        "type": "Premium Suburban Continental & Multi-Cuisine Family Resto-Lounge",
        "latitude": 13.0315,
        "longitude": 77.5849
      }
    ],
    "transport": [
      {
        "name": "Hebbal Railway Station",
        "type": "Suburban Passenger Indian Rail Station Facility",
        "latitude": 13.0347,
        "longitude": 77.5889
      },
      {
        "name": "Hebbal Flyover BMTC Bus Hub",
        "type": "Major Multi-Directional Airport and City Transit Bus Bay",
        "latitude": 13.0362,
        "longitude": 77.5968
      },
      {
        "name": "Kodigehalli Metro Station",
        "type": "Nearby Blue Line Elevated Airport Transit Metro Stop",
        "latitude": 13.0519,
        "longitude": 77.5934
      },
      {
        "name": "Kempapura Metro Station Hub",
        "type": "Upcoming Blue Line Elevated Interchange Facility",
        "latitude": 13.0441,
        "longitude": 77.6083
      }
    ]
  },
  {
    "location": "yelahanka",
    "latitude": 13.1007,
    "longitude": 77.5963,
    "landmarks": [
      {
        "name": "Yelahanka Air Force Station",
        "description": "A premier military airfield and expansive defense base, globally famous for hosting the biennial Aero India aviation expo.",
        "latitude": 13.1348,
        "longitude": 77.6062
      },
      {
        "name": "Allalasandra Lake Park",
        "description": "A beautifully rejuvenated lakeside public park featuring dense tree cover, children's play areas, and outdoor gyms.",
        "latitude": 13.0894,
        "longitude": 77.5941
      },
      {
        "name": "Rail Wheel Factory (RWF) Campus",
        "description": "A colossal industrial manufacturing facility under the Ministry of Railways, anchoring the historical blue-collar layout lines.",
        "latitude": 13.1165,
        "longitude": 77.5768
      },
      {
        "name": "Dr. S.K. Karim Khan Park",
        "description": "A serene, manicured public garden space serving as a peaceful social ecosystem for long-time residential sectors.",
        "latitude": 13.0964,
        "longitude": 77.5975
      }
    ],
    "food_and_shopping": [
      {
        "name": "RMZ Galleria Mall",
        "type": "Premium Multi-Brand Shopping Destination, Food Court & Multiplex",
        "latitude": 13.1132,
        "longitude": 77.5974
      },
      {
        "name": "The Big Market Yelahanka",
        "type": "Large-Scale Local Retail Departmental Store & Grocery Hub",
        "latitude": 13.1014,
        "longitude": 77.5941
      },
      {
        "name": "Brahmins' Thatte Idli Yelahanka",
        "type": "Famous Regional Breakfast Joint Specializing in Soft Rice Cakes",
        "latitude": 13.0948,
        "longitude": 77.5966
      },
      {
        "name": "Garuda Mall Yelahanka (Yelahanka New Town)",
        "type": "Modern Commercial Retail Complex & Entertainment Zone",
        "latitude": 13.0989,
        "longitude": 77.5744
      }
    ],
    "transport": [
      {
        "name": "Yelahanka Junction Railway Station",
        "type": "Major National & Suburban Intercity Rail Terminus Interchange",
        "latitude": 13.1008,
        "longitude": 77.5961
      },
      {
        "name": "Yelahanka Old Town Bus Station",
        "type": "Arterial BMTC Local Network Connecting Terminal",
        "latitude": 13.0975,
        "longitude": 77.5954
      },
      {
        "name": "Yelahanka Metro Station",
        "type": "Elevated Airport Corridor Transit Stop (Blue Line)",
        "latitude": 13.1022,
        "longitude": 77.5958
      },
      {
        "name": "Kogilu Cross Bus Stop",
        "type": "High-Volume National Highway Transit Crossing",
        "latitude": 13.1186,
        "longitude": 77.6015
      }
    ]
  },
  {
    "location": "thanisandra",
    "latitude": 13.0544,
    "longitude": 77.6324,
    "landmarks": [
      {
        "name": "Manyata Tech Park (Main Back Gate Corridor)",
        "description": "The sprawling northern access axis to the corporate software hub that completely transformed this geography into an IT corridor.",
        "latitude": 13.0489,
        "longitude": 77.6256
      },
      {
        "name": "Thanisandra Main Road Commercial Belt",
        "description": "A high-density development corridor lined with massive premium residential sky-rise complexes and tech-worker apartments.",
        "latitude": 13.0585,
        "longitude": 77.6358
      },
      {
        "name": "Chokkanahalli Lake Reserve",
        "description": "A peripheral natural freshwater body undergoing active environmental conservation and perimeter fencing initiatives.",
        "latitude": 13.0768,
        "longitude": 77.6412
      },
      {
        "name": "Rashtrotthana Vidya Kendra Campus",
        "description": "A premier, vast educational campus holding immense socio-cultural and academic value for local families.",
        "latitude": 13.0512,
        "longitude": 77.6434
      }
    ],
    "food_and_shopping": [
      {
        "name": "Elements Mall",
        "type": "Major Lifestyle Shopping, Dining, & PVR Multiplex Mall",
        "latitude": 13.0448,
        "longitude": 77.6241
      },
      {
        "name": "Bhartiya City Shopping Arcades",
        "type": "Premium High-End Retail Boulevard & Open-Air Promenade",
        "latitude": 13.0825,
        "longitude": 77.6369
      },
      {
        "name": "Savoury Restaurant Thanisandra",
        "type": "Popular Arabian & Coastal Malabar Non-Vegetarian Fine Diner",
        "latitude": 13.0535,
        "longitude": 77.6318
      },
      {
        "name": "The Filter Coffee Thanisandra Line",
        "type": "Authentic Traditional South Indian Breakfast & Beverage Outlet",
        "latitude": 13.0561,
        "longitude": 77.6342
      }
    ],
    "transport": [
      {
        "name": "Thanisandra Main Road Bus Stop",
        "type": "Central Neighborhood Arterial BMTC Transit Point",
        "latitude": 13.0548,
        "longitude": 77.6329
      },
      {
        "name": "Nagawara Metro Station Interchange",
        "type": "Nearby Connecting Node for Blue Line and Pink Line Underground Metro",
        "latitude": 13.0435,
        "longitude": 77.6224
      },
      {
        "name": "Bellandur Road/Hebbal Rail Links",
        "type": "Accessible Commuter Rail Connectivity Infrastructure",
        "latitude": 13.0347,
        "longitude": 77.5889
      },
      {
        "name": "Manyata Tech Park Metro Station",
        "type": "Upcoming Elevated Airport Route Transit Stop (Blue Line)",
        "latitude": 13.0361,
        "longitude": 77.6198
      }
    ]
  },
  {
    "location": "jakkur",
    "latitude": 13.0784,
    "longitude": 77.6052,
    "landmarks": [
      {
        "name": "Jakkur Aerodrome & Flying School",
        "description": "The historic, government-run aviation training airfield that serves as a unique landmark for private aircraft flights and microlight flying.",
        "latitude": 13.0762,
        "longitude": 77.5936
      },
      {
        "name": "Jakkur Lake Ecosystem Conservation Zone",
        "description": "An award-winning, community-led biological lake sanctuary utilizing a constructed wetland model to sustain rich local avian biodiversity.",
        "latitude": 13.0788,
        "longitude": 77.6141
      },
      {
        "name": "Jawaharlal Nehru Centre for Advanced Scientific Research (JNCASR)",
        "description": "An elite, globally renowned multidisciplinary postgraduate research institute established by the Department of Science and Technology.",
        "latitude": 13.0826,
        "longitude": 77.6085
      },
      {
        "name": "Agastya Foundation Center Jakkur",
        "description": "A dedicated scientific community orientation campus pushing rural child development and educational programs.",
        "latitude": 13.0735,
        "longitude": 77.6022
      }
    ],
    "food_and_shopping": [
      {
        "name": "The Yellow Submarine Beer Garden",
        "type": "Spacious Thematic Craft Brewery & Multi-Cuisine Terrace Lounge",
        "latitude": 13.0645,
        "longitude": 77.5985
      },
      {
        "name": "Jakkur Main Road High Street Shops",
        "type": "Rapidly Growing Domestic Retail, Artisan Cafes & Daily Needs Belt",
        "latitude": 13.0772,
        "longitude": 77.6035
      },
      {
        "name": "Byg Brewski Brewing Company (Hennur-Jakkur Line)",
        "type": "Colossal, Internationally Famous Open-Air Experiential Microbrewery",
        "latitude": 13.0682,
        "longitude": 77.6421
      },
      {
        "name": "Sri Krishna Vasudev Upahar",
        "type": "Traditional South Indian Vegetarian Comfort Tiffin Room",
        "latitude": 13.0754,
        "longitude": 77.5988
      }
    ],
    "transport": [
      {
        "name": "Jakkur Layout Bus Stop",
        "type": "Arterial Interior Route BMTC Platform",
        "latitude": 13.0778,
        "longitude": 77.6041
      },
      {
        "name": "Jakkur Metro Station",
        "type": "Elevated National Highway Airport Route Facility (Blue Line)",
        "latitude": 13.0768,
        "longitude": 77.5942
      },
      {
        "name": "Kodigehalli Railway Crossing Gate",
        "type": "Suburban Passenger Train Network Connect",
        "latitude": 13.0574,
        "longitude": 77.5946
      },
      {
        "name": "Yelahanka Junction Rail Base",
        "type": "Accessible Major Intercity Rail Terminus",
        "latitude": 13.1008,
        "longitude": 77.5961
      }
    ]
  },
  {
    "location": "devanahalli",
    "latitude": 13.2482,
    "longitude": 77.7128,
    "landmarks": [
      {
        "name": "Devanahalli Fort Heritage Site",
        "description": "A historic, late 15th-century mud-and-stone fortification featuring massive bastions, famous as the birthplace of Tipu Sultan.",
        "latitude": 13.2458,
        "longitude": 77.7154
      },
      {
        "name": "Kempegowda International Airport Terminal Complex (Fringe)",
        "description": "The sprawling civil aviation mega-ecosystem that redefined Devanahalli from a quiet outpost into an international aero-city corridor.",
        "latitude": 13.2004,
        "longitude": 77.7088
      },
      {
        "name": "Venugopalaswamy Temple Inside Fort",
        "description": "An exquisite, ancient temple monument boasting intricate Vijayanagara-style relief carvings and stone structures.",
        "latitude": 13.2464,
        "longitude": 77.7148
      },
      {
        "name": "Devanahalli Business Park Landmark Sector",
        "description": "A massive, government-allocated economic zone dedicated to upcoming aerospace, defense, and science industries.",
        "latitude": 13.2215,
        "longitude": 77.7102
      }
    ],
    "food_and_shopping": [
      {
        "name": "Nandi Upachar Devanahalli Highway",
        "type": "Famous Mass-Scale Highway South Indian Vegetarian Resto-Hub",
        "latitude": 13.2284,
        "longitude": 77.7106
      },
      {
        "name": "Signature Club Resort Fine Dining",
        "type": "Premium Luxury Gated-Community Sports & Multi-Cuisine Diner Lounge",
        "latitude": 13.2305,
        "longitude": 77.7158
      },
      {
        "name": "Prestige Ozone Retail Arcade Blocks",
        "type": "Upcoming Commercial Shopping & Suburban Retail Space",
        "latitude": 13.2248,
        "longitude": 77.7121
      },
      {
        "name": "Indian Paratha Company (IPC)",
        "type": "Highly Popular Highway Drive-In Casual North Indian Cafe",
        "latitude": 13.2724,
        "longitude": 77.7152
      }
    ],
    "transport": [
      {
        "name": "Devanahalli Railway Station",
        "type": "Suburban Branch Line Passenger Train Facility",
        "latitude": 13.2436,
        "longitude": 77.7078
      },
      {
        "name": "Devanahalli Old Bus Terminus",
        "type": "Regional KSRTC & BMTC Outpost Bus Depot",
        "latitude": 13.2475,
        "longitude": 77.7115
      },
      {
        "name": "Airport KIAS Bus Bay Hub",
        "type": "World-Class Multi-Modal Premium Airport Shuttle Terminal",
        "latitude": 13.1982,
        "longitude": 77.7056
      },
      {
        "name": "Devanahalli Metro Station",
        "type": "Upcoming Terminal Facility of the Airport Blue Line Network",
        "latitude": 13.2224,
        "longitude": 77.7095
      }
    ]
  },
  {
    "location": "airport road",
    "latitude": 13.1368,
    "longitude": 77.6124,
    "landmarks": [
      {
        "name": "National Highway 44 (NH44) Express Corridor",
        "description": "The beautifully paved, hyper-modern signal-free 6-to-8 lane highway network connecting central Bengaluru to the international airport.",
        "latitude": 13.1452,
        "longitude": 77.6085
      },
      {
        "name": "ITC Windsor / Taj Bangalore Airport Gateway",
        "description": "Elite luxury hospitality architectural statements bookending the high-speed transit travel corridor.",
        "latitude": 13.1974,
        "longitude": 77.7042
      },
      {
        "name": "Sir M. Visvesvaraya Institute of Technology (MVIT) Entrance",
        "description": "A landmark institutional gateway arching off the main highway, guiding thousands of engineering students.",
        "latitude": 13.1514,
        "longitude": 77.6094
      },
      {
        "name": "Chikkajala Fort Ruins & Ancient Temple",
        "description": "A centuries-old historical pre-colonial stone structure standing as an evocative architectural checkpoint directly off the highway shoulder.",
        "latitude": 13.1725,
        "longitude": 77.6341
      }
    ],
    "food_and_shopping": [
      {
        "name": "The Galleria Mall Corridor",
        "type": "Major Highway Lifestyle Retail Complex & Multiplex Gateway",
        "latitude": 13.1132,
        "longitude": 77.5974
      },
      {
        "name": "Adyar Ananda Bhavan (A2B) Airport Road",
        "type": "Massive Expressway Commuter Vegetarian Quick-Service Resto-Hub",
        "latitude": 13.1812,
        "longitude": 77.6432
      },
      {
        "name": "Cube Boutique Highway Eateries",
        "type": "Modern Multi-Brand Drive-Thru Food Courts & Coffee Cafes",
        "latitude": 13.1614,
        "longitude": 77.6215
      },
      {
        "name": "Windmills Craftworks Proximity (Via Airport Links)",
        "type": "Premium Avant-Garde Microbrewery, Jazz Venue & Fine Dining Space",
        "latitude": 12.9824,
        "longitude": 77.7218
      }
    ],
    "transport": [
      {
        "name": "Airport Road KIAS Bus Stops",
        "type": "Arterial High-Speed Expressway Premium Shuttle Boarding Bays",
        "latitude": 13.1425,
        "longitude": 77.6091
      },
      {
        "name": "Chikkajala Metro Station",
        "type": "Elevated Airport Transit Corridor Station (Blue Line)",
        "latitude": 13.1718,
        "longitude": 77.6322
      },
      {
        "name": "Doddajala Metro Station",
        "type": "Elevated High-Speed Highway Metro Platform (Blue Line)",
        "latitude": 13.1895,
        "longitude": 77.6614
      },
      {
        "name": "Kranthivira Sangolli Rayanna Railway Airport Link",
        "type": "Dedicated Suburban Airport MEMU Commuter Rail Infrastructure",
        "latitude": 13.1965,
        "longitude": 77.7012
      }
    ]
  },
  {
    "location": "sahakar nagar",
    "latitude": 13.0578,
    "longitude": 77.5814,
    "landmarks": [
      {
        "name": "Sahakar Nagar Central Main Road Boulevard",
        "description": "A beautifully planned, tree-canopied premium residential high street that has evolved into a premier culinary hotspot.",
        "latitude": 13.0582,
        "longitude": 77.5805
      },
      {
        "name": "Chairman's Club Sports Complex",
        "description": "A major neighborhood geographical anchor offering premium recreational facilities and social spaces for local residents.",
        "latitude": 13.0614,
        "longitude": 77.5758
      },
      {
        "name": "Ganesha Temple Roundabout",
        "description": "The definitive traditional spiritual and geographical navigation node marking the entry into the layout's core residential sectors.",
        "latitude": 13.0565,
        "longitude": 77.5822
      },
      {
        "name": "Kodigehalli Lake Fringe Parks",
        "description": "An adjoining community green space featuring walking trails and tree avenues maintained by local civic bodies.",
        "latitude": 13.0641,
        "longitude": 77.5834
      }
    ],
    "food_and_shopping": [
      {
        "name": "Truffles Sahakar Nagar",
        "type": "Highly Popular High-Volume Gourmet Burger Restaurant & Youth Hangout Cafe",
        "latitude": 13.0588,
        "longitude": 77.5796
      },
      {
        "name": "Glen's Bakehouse Sahakar Nagar Lounge",
        "type": "Premium European-Style Bakery, Artisanal Coffee & Dessert Café",
        "latitude": 13.0591,
        "longitude": 77.5812
      },
      {
        "name": "Polar Bear Ice Cream Sundaes Sahakar Nagar",
        "type": "Popular Family Neighborhood Dessert Parlor Lounge",
        "latitude": 13.0574,
        "longitude": 77.5819
      },
      {
        "name": "Starbucks Sahakar Nagar Boulevard",
        "type": "Premium International Coffee House & Work-Friendly Cafe Bistro",
        "latitude": 13.0584,
        "longitude": 77.5801
      }
    ],
    "transport": [
      {
        "name": "Kodigehalli Railway Station",
        "type": "Immediate Neighborhood Suburban Commuter Passenger Rail Stop",
        "latitude": 13.0571,
        "longitude": 77.5928
      },
      {
        "name": "Sahakar Nagar Highway Entry Bus Stop",
        "type": "Arterial National Highway Express BMTC Bus Bay",
        "latitude": 13.0552,
        "longitude": 77.5936
      },
      {
        "name": "Kodigehalli Metro Station (NH44 Corner)",
        "type": "Nearest Elevated Airport Route Metro Facility (Blue Line)",
        "latitude": 13.0519,
        "longitude": 77.5934
      },
      {
        "name": "Hebbal Flyover Multi-Modal Junction Base",
        "type": "Accessible Connecting Regional Transport Exchange",
        "latitude": 13.0362,
        "longitude": 77.5968
      }
    ]
  },
  {
    "location": "rt nagar",
    "latitude": 13.0184,
    "longitude": 77.5932,
    "landmarks": [
      {
        "name": "RT Nagar 80 Feet Road Commercial Axis",
        "description": "A dense, high-traffic retail high street that defines the commercial landscape of the Rabindranath Tagore Nagar layout.",
        "latitude": 13.0191,
        "longitude": 77.5938
      },
      {
        "name": "RT Nagar BDA Complex Square",
        "description": "A long-standing public service civic complex and essential business navigation node for old residents.",
        "latitude": 13.0172,
        "longitude": 77.5921
      },
      {
        "name": "Taralabalu Kendra Cultural Foundation",
        "description": "A prominent socio-cultural and educational center hosting community plays, classical concerts, and public seminars.",
        "latitude": 13.0245,
        "longitude": 77.5944
      },
      {
        "name": "Rahmath Nagar Mosque Monument",
        "description": "A visually striking, culturally rich religious landmark standing adjacent to the busy inner layout grids.",
        "latitude": 13.0132,
        "longitude": 77.5915
      }
    ],
    "food_and_shopping": [
      {
        "name": "Empire Restaurant RT Nagar",
        "type": "Famous Legendary Late-Night Mughlai Non-Veg Casual Diner Room",
        "latitude": 13.0182,
        "longitude": 77.5935
      },
      {
        "name": "Anand Sweets and Savouries RT Nagar",
        "type": "Premium Traditional Indian Confectionery, Chaat & Snack Hub",
        "latitude": 13.0195,
        "longitude": 77.5941
      },
      {
        "name": "Nandhini Deluxe RT Nagar",
        "type": "Classic Spicy Andhra-Style Non-Vegetarian Fine Family Restaurant",
        "latitude": 13.0168,
        "longitude": 77.5926
      },
      {
        "name": "RT Nagar Fashion High Street Retailers",
        "type": "Dense Household Apparel, Footwear & Electronics Multi-Brand Belt",
        "latitude": 13.0188,
        "longitude": 77.5939
      }
    ],
    "transport": [
      {
        "name": "RT Nagar Police Station Bus Stop",
        "type": "Central Arterial Multi-Route BMTC Transit Node",
        "latitude": 13.0194,
        "longitude": 77.5946
      },
      {
        "name": "Mekhri Circle Underpass Interchange",
        "type": "Immediate Nearby High-Traffic Central City Junction Crossing",
        "latitude": 13.0089,
        "longitude": 77.5918
      },
      {
        "name": "Bangalore Cantonment Railway Station",
        "type": "Accessible Nearby National Intercity Rail Terminus",
        "latitude": 12.9934,
        "longitude": 77.5982
      },
      {
        "name": "Matadahalli Metro Station Facility",
        "type": "Accessible Upcoming Pink Line Underground Metro Stop",
        "latitude": 13.0125,
        "longitude": 77.5922
      }
    ]
  },
  {
    "location": "vidyaranyapura",
    "latitude": 13.0782,
    "longitude": 77.5584,
    "landmarks": [
      {
        "name": "BEL Park Eco-Spaces & Sports Grounds",
        "description": "An immaculately maintained corporate-residential green lung space belonging to Bharat Electronics Limited housing blocks.",
        "latitude": 13.0645,
        "longitude": 77.5612
      },
      {
        "name": "Vidyaranyapura Central Bus Station Circle",
        "description": "The definitive geographic reference point and core intersection node anchoring the entire neighborhood layout.",
        "latitude": 13.0785,
        "longitude": 77.5581
      },
      {
        "name": "Sri Durga Parameshwari Temple Complex",
        "description": "A highly revered, culturally rich regional shrine featuring striking classical temple architecture traditions.",
        "latitude": 13.0812,
        "longitude": 77.5546
      },
      {
        "name": "Narasipura Lake & Walking Deck",
        "description": "A beautifully restored urban lake ecosystem providing a serene environment for morning joggers and elderly residents.",
        "latitude": 13.0844,
        "longitude": 77.5635
      }
    ],
    "food_and_shopping": [
      {
        "name": "Sri Krishna Upahar Vidyaranyapura",
        "type": "Traditional South Indian Quick-Service Vegetarian Tiffin Diner",
        "latitude": 13.0792,
        "longitude": 77.5578
      },
      {
        "name": "Vidyaranyapura Main Road Shopping District",
        "type": "Bustling Domestic Produce, Textiles, Hardware & Household Retail Street",
        "latitude": 13.0781,
        "longitude": 77.5588
      },
      {
        "name": "Adyar Ananda Bhavan (A2B) Vidyaranyapura",
        "type": "Popular Family Traditional Vegetarian Restaurant & Sweet Stall",
        "latitude": 13.0765,
        "longitude": 77.5594
      },
      {
        "name": "Cake of the Day Bakery Lounge",
        "type": "Popular Local Neighborhood Dessert Parlor & Custom Cake Kiosk",
        "latitude": 13.0751,
        "longitude": 77.5572
      }
    ],
    "transport": [
      {
        "name": "Vidyaranyapura Central Bus Terminus",
        "type": "Dedicated High-Volume Local BMTC Depot Operations Base",
        "latitude": 13.0789,
        "longitude": 77.5579
      },
      {
        "name": "Jalahalli Metro Station Access Terminal",
        "type": "Nearest Elevated Highway Transit Access Point (Green Line)",
        "latitude": 13.0454,
        "longitude": 77.5461
      },
      {
        "name": "Yesvantpur Junction Railway Station",
        "type": "Accessible Major Intercity National Rail Terminal Hub",
        "latitude": 13.0241,
        "longitude": 77.5472
      },
      {
        "name": "BEL Circle Bus Bay Crossing",
        "type": "Connecting Sub-Arterial Outer Ring Road Express Transit Node",
        "latitude": 13.0494,
        "longitude": 77.5628
      }
    ]
  },
  {
    "location": "jalahalli",
    "latitude": 13.0475,
    "longitude": 77.5424,
    "landmarks": [
      {
        "name": "HMT Heritage Watch Factory Estate",
        "description": "The historic, colossal industrial township campus that birthed India's legendary public sector manufacturing culture.",
        "latitude": 13.0422,
        "longitude": 77.5364
      },
      {
        "name": "Air Force Station Jalahalli (East/West)",
        "description": "A massive, heavily guarded premier technical training command base of the Indian Air Force dominating local geography.",
        "latitude": 13.0541,
        "longitude": 77.5412
      },
      {
        "name": "Sri Ayyappan Temple Jalahalli",
        "description": "A historic, architecturally magnificent shrine modeled precisely after Kerala temple styles, drawing immense devotee crowds.",
        "latitude": 13.0485,
        "longitude": 77.5358
      },
      {
        "name": "Jalahalli Lake Nature Reserve",
        "description": "A quiet, defense-fringe wilderness lake catchment area supporting dense old-growth canopy tree flora.",
        "latitude": 13.0514,
        "longitude": 77.5285
      }
    ],
    "food_and_shopping": [
      {
        "name": "Jalahalli Cross Commercial Retail Hub",
        "type": "Extremely Dense Multi-Brand Footwear, Apparel & Electronics High Street",
        "latitude": 13.0448,
        "longitude": 77.5458
      },
      {
        "name": "Rockline Mall",
        "type": "Modern Regional Lifestyle Shopping Center, Food Court & Multiplex",
        "latitude": 13.0452,
        "longitude": 77.5414
      },
      {
        "name": "Sherlock's Pub Jalahalli Area",
        "type": "Popular Casual Neighborhood Gastropub & Retro Music Lounge",
        "latitude": 13.0418,
        "longitude": 77.5465
      },
      {
        "name": "Sri Guru Kottureshwara Davangere Benne Dosa",
        "type": "Famous Regional Crispy Butter-Dosa Specialty Quick Eatery",
        "latitude": 13.0435,
        "longitude": 77.5461
      }
    ],
    "transport": [
      {
        "name": "Jalahalli Metro Station",
        "type": "Elevated National Highway Highway Transit Hub (Green Line)",
        "latitude": 13.0454,
        "longitude": 77.5461
      },
      {
        "name": "Jalahalli Cross Central Bus stop",
        "type": "Major Inter-District and Intra-City BMTC Highway Bus Platform",
        "latitude": 13.0449,
        "longitude": 77.5455
      },
      {
        "name": "Yesvantpur Junction Railway Terminus",
        "type": "Immediate Nearby Major National Intercity Train Terminus",
        "latitude": 13.0241,
        "longitude": 77.5472
      },
      {
        "name": "Chikkabanavara Railway Station",
        "type": "Suburban Commuter Passenger Rail Network Stop Link",
        "latitude": 13.0588,
        "longitude": 77.5014
      }
    ]
  },
  {
    "location": "jayanagar",
    "landmarks": [
      {
        "name": "Jayanagar 4th Block Shopping Complex",
        "description": "An iconic, sprawling traditional market and retail epicenter that has defined Bangalore's cultural shopping experience for decades.",
        "latitude": 12.9314,
        "longitude": 77.5836
      },
      {
        "name": "Madhavan Park Eco-Space",
        "description": "A historic, beautifully manicured public park featuring old-growth rain trees and pristine walking lanes for senior residents.",
        "latitude": 12.9366,
        "longitude": 77.5828
      },
      {
        "name": "NMKRV College for Women",
        "description": "A premier legacy educational institution anchoring the neighborhood's academic history and social landscape.",
        "latitude": 12.9322,
        "longitude": 77.5794
      },
      {
        "name": "Sri Dharmanath Jain Temple",
        "description": "A visually magnificent white marble structure standing as a prominent architectural and spiritual landmark in the area.",
        "latitude": 12.9291,
        "longitude": 77.5869
      }
    ],
    "food_and_shopping": [
      {
        "name": "Cool Joint",
        "type": "Legendary Street-Side Milkshake & Sandwich Kiosk",
        "latitude": 12.9303,
        "longitude": 77.5819
      },
      {
        "name": "Taaza Thindi",
        "type": "High-Volume, Ultra-Clean Traditional South Indian Breakfast Joint",
        "latitude": 12.9242,
        "longitude": 77.5851
      },
      {
        "name": "Maiyas Jayanagar",
        "type": "Premium Authentic Karnataka Fine Dining & Sweet Hub",
        "latitude": 12.9325,
        "longitude": 77.5839
      },
      {
        "name": "Jayanagar 3rd Block Fashion High Street",
        "type": "Premium Brand Flagship Retail Corridor",
        "latitude": 12.9348,
        "longitude": 77.5834
      }
    ],
    "transport": [
      {
        "name": "Jayanagar Metro Station",
        "type": "Elevated Transit Hub (Green Line)",
        "latitude": 12.9312,
        "longitude": 77.5802
      },
      {
        "name": "Jayanagar 4th Block Bus TTMC",
        "type": "Major Integrated BMTC Bus Terminal Complex",
        "latitude": 12.9318,
        "longitude": 77.5847
      },
      {
        "name": "Rashtreeya Vidyalaya Road (RV Road) Metro Station",
        "type": "Major Green Line and Future Yellow Line Interchange",
        "latitude": 12.9209,
        "longitude": 77.5804
      },
      {
        "name": "South End Circle Metro Station",
        "type": "Elevated Transit Facility (Green Line)",
        "latitude": 12.9384,
        "longitude": 77.5801
      }
    ],
    "latitude": 12.9307,
    "longitude": 77.5832
  },
  {
    "location": "jp nagar",
    "landmarks": [
      {
        "name": "Ranga Shankara Theatre Campus",
        "description": "An internationally celebrated cultural oasis dedicated to world-class stage plays, performing arts, and youth theatre.",
        "latitude": 12.9112,
        "longitude": 77.5864
      },
      {
        "name": "Mini Forest Park Eco-Stripe",
        "description": "A densely wooded urban forest reserve patch outfitted with modern jogging tracks and outdoor fitness zones.",
        "latitude": 12.9142,
        "longitude": 77.5912
      },
      {
        "name": "Sri Tirumala Giri Lakshmi Venkateswara Temple",
        "description": "A majestic hilltop temple featuring classical Dravidian architecture that dominates the local skyline.",
        "latitude": 12.9015,
        "longitude": 77.5946
      },
      {
        "name": "JP Nagar BDA Complex",
        "description": "A long-standing public service civic square and essential commercial navigation node for the layout.",
        "latitude": 12.9102,
        "longitude": 77.5861
      }
    ],
    "food_and_shopping": [
      {
        "name": "Brahmins' Thatte Idli JP Nagar",
        "type": "Famous Regional Fluffy Rice-Cake Tiffin Room",
        "latitude": 12.9108,
        "longitude": 77.5842
      },
      {
        "name": "The Woodrose Club Fine Dining",
        "type": "Upscale Boutique Premium Multi-Cuisine Luxury Restaurants",
        "latitude": 12.8974,
        "longitude": 77.5862
      },
      {
        "name": "Chulha Chauki Da Dhaba JP Nagar",
        "type": "Rustic North Indian Village-Themed Casual Eatery",
        "latitude": 12.9118,
        "longitude": 77.5939
      },
      {
        "name": "Central Mall JP Nagar Area",
        "type": "Lifestyle Fashion & Entertainment Arcade",
        "latitude": 12.9105,
        "longitude": 77.5926
      }
    ],
    "transport": [
      {
        "name": "JP Nagar Metro Station",
        "type": "Elevated Transit Facility (Green Line)",
        "latitude": 12.9074,
        "longitude": 77.5796
      },
      {
        "name": "Sarakki Junction Bus Stop",
        "type": "High-Density Outer Ring Road Transit Crossing",
        "latitude": 12.9069,
        "longitude": 77.5799
      },
      {
        "name": "JP Nagar 3rd Phase Bus Bay",
        "type": "Arterial Neighborhood BMTC Stop",
        "latitude": 12.9134,
        "longitude": 77.5962
      },
      {
        "name": "Banashankari Metro Interchange Base",
        "type": "Accessible Multi-Modal Transit Terminal Link",
        "latitude": 12.9156,
        "longitude": 77.5736
      }
    ],
    "latitude": 12.9105,
    "longitude": 77.5857
  },
  {
    "location": "banashankari",
    "landmarks": [
      {
        "name": "Banashankari Amma Temple",
        "description": "One of Bengaluru's most famous and historically revered shrines, attracting massive devotee crowds during special Rahukala pushpa pujas.",
        "latitude": 12.9152,
        "longitude": 77.5739
      },
      {
        "name": "Banashankari BDA Complex Terminal",
        "description": "A colossal multi-level civic infrastructure building anchoring public administrative departments and retail markets.",
        "latitude": 12.9251,
        "longitude": 77.5658
      },
      {
        "name": "Devagiri Varaprada Sri Venkateswara Temple",
        "description": "A beautifully sculpted, serene temple complex located atop a gentle hill lock in the residential core.",
        "latitude": 12.9288,
        "longitude": 77.5674
      },
      {
        "name": "Suchitra Cinema and Cultural Academy",
        "description": "A historic institute dedicated to art-house cinema screenings, community theater training, and intellectual discussions.",
        "latitude": 12.9246,
        "longitude": 77.5582
      }
    ],
    "food_and_shopping": [
      {
        "name": "Sri Banashankari Mahila Samaj Food Court",
        "type": "Traditional Evenings Street Food & Snack Zone",
        "latitude": 12.9271,
        "longitude": 77.5705
      },
      {
        "name": "Gufha Restaurant Banashankari",
        "type": "Cave-Themed Experiential Multi-Cuisine Fine Diner",
        "latitude": 12.9238,
        "longitude": 77.5614
      },
      {
        "name": "Vidyarthi Bhavan Banashankari Extension",
        "type": "Casual Heritage Style Ghee Roast Dosa Diner",
        "latitude": 12.9264,
        "longitude": 77.5602
      },
      {
        "name": "Kathriguppe Main Road Shopping District",
        "type": "Dense Household Apparel & Electronics Retail Corridor",
        "latitude": 12.9248,
        "longitude": 77.5564
      }
    ],
    "transport": [
      {
        "name": "Banashankari Metro Station",
        "type": "High-Traffic Elevated Hub (Green Line)",
        "latitude": 12.9156,
        "longitude": 77.5736
      },
      {
        "name": "Banashankari TTMC Bus Terminal",
        "type": "Massive Multi-Directional Regional Bus Hub",
        "latitude": 12.9154,
        "longitude": 77.5728
      },
      {
        "name": "Kathriguppe Circle Bus Stop",
        "type": "Outer Ring Road Express Bus Platform",
        "latitude": 12.9251,
        "longitude": 77.5561
      },
      {
        "name": "Girinagar Bus Terminus",
        "type": "Dedicated Interior Neighborhood Route Base",
        "latitude": 12.9342,
        "longitude": 77.5484
      }
    ],
    "latitude": 12.9254,
    "longitude": 77.5644
  },
  {
    "location": "basavanagudi",
    "landmarks": [
      {
        "name": "The Bull Temple (Dodda Ganeshana Gudi)",
        "description": "A magnificent 16th-century heritage site housing a monolithic Nandi bull sculpture, hosting the historic annual Kadalekai Parishe (Peanut Fair).",
        "latitude": 12.9424,
        "longitude": 77.5681
      },
      {
        "name": "Bugle Rock Park Geological Site",
        "description": "A unique botanical park featuring massive natural rock formations estimated to be over 3 billion years old.",
        "latitude": 12.9418,
        "longitude": 77.5694
      },
      {
        "name": "National College Basavanagudi",
        "description": "A legendary academic institution that served as a cultural, scientific, and political incubator for old Bangalore.",
        "latitude": 12.9431,
        "longitude": 77.5739
      },
      {
        "name": "Indian Institute of World Culture",
        "description": "A venerable, long-standing public library and literary assembly hall holding exceptional historical value.",
        "latitude": 12.9452,
        "longitude": 77.5714
      }
    ],
    "food_and_shopping": [
      {
        "name": "Vidyarthi Bhavan",
        "type": "Legendary Heritage Crispy Ghee Roast Dosa Eatery",
        "latitude": 12.9451,
        "longitude": 77.5724
      },
      {
        "name": "Brahmin's Coffee Bar",
        "type": "Iconic No-Seating Idli, Vada & Filter Coffee Stall",
        "latitude": 12.9539,
        "longitude": 77.5691
      },
      {
        "name": "Gandhi Bazaar Main Road Market",
        "type": "Bustling Traditional Spices, Flowers & Textile Bazaar",
        "latitude": 12.9462,
        "longitude": 77.5718
      },
      {
        "name": "Mahalakshmi Tiffin Room (MTR)",
        "type": "Classic Heritage Karnataka Tiffin Fine Diner",
        "latitude": 12.9542,
        "longitude": 77.5841
      }
    ],
    "transport": [
      {
        "name": "National College Metro Station",
        "type": "Elevated Transit Facility (Green Line)",
        "latitude": 12.9436,
        "longitude": 77.5746
      },
      {
        "name": "Lalbagh Metro Station",
        "type": "Botanical Garden Gate Access Station (Green Line)",
        "latitude": 12.9464,
        "longitude": 77.5804
      },
      {
        "name": "Gandhi Bazaar Bus Stop",
        "type": "Arterial Commercial Route BMTC Stop",
        "latitude": 12.9458,
        "longitude": 77.5711
      },
      {
        "name": "Kempegowda Bus Station (Majestic)",
        "type": "Accessible Central City Transport Terminal",
        "latitude": 12.9779,
        "longitude": 77.5731
      }
    ],
    "latitude": 12.9417,
    "longitude": 77.5755
  },
  {
    "location": "kumaraswamy layout",
    "landmarks": [
      {
        "name": "Dayananda Sagar Institutions (DSI) Campus",
        "description": "A sprawling, high-density educational city landmark dominating the local landscape with multi-tier architecture blocks.",
        "latitude": 12.9084,
        "longitude": 77.5604
      },
      {
        "name": "Kumaraswamy Layout Central Water Tank",
        "description": "The definitive geographical reference point anchoring the layout's primary residential sectors.",
        "latitude": 12.9051,
        "longitude": 77.5614
      },
      {
        "name": "Sri Kumaraswamy Temple Shrines",
        "description": "The neighborhood's namesake hillock temple complex reflecting traditional Dravidian architecture.",
        "latitude": 12.9018,
        "longitude": 77.5642
      },
      {
        "name": "ISRO Layout Border Park Fields",
        "description": "A beautifully elevated neighborhood green space adjacent to India's premier space agency housing blocks.",
        "latitude": 12.9002,
        "longitude": 77.5678
      }
    ],
    "food_and_shopping": [
      {
        "name": "DSI College Food Street Alley",
        "type": "Vibrant Youth-Centric Budget Fast Food Hub",
        "latitude": 12.9078,
        "longitude": 77.5611
      },
      {
        "name": "Sri Krishna Grand Kumaraswamy",
        "type": "Casual Multi-Cuisine Vegetarian Family Restaurant",
        "latitude": 12.9056,
        "longitude": 77.5628
      },
      {
        "name": "Polar Bear Ice Cream Sundaes Layout Unit",
        "type": "Popular Dessert Parlor Lounge",
        "latitude": 12.9062,
        "longitude": 77.5608
      },
      {
        "name": "The Cubano Cafe",
        "type": "Continental Student Hangout Cafe Bistro",
        "latitude": 12.9081,
        "longitude": 77.5594
      }
    ],
    "transport": [
      {
        "name": "Kumaraswamy Layout Bus Terminus",
        "type": "Dedicated Local BMTC Route Station Base",
        "latitude": 12.9048,
        "longitude": 77.5631
      },
      {
        "name": "Yelachenahalli Metro Station",
        "type": "Nearest Elevated Highway Access (Green Line)",
        "latitude": 12.8964,
        "longitude": 77.5721
      },
      {
        "name": "Banashankari Metro Station Link",
        "type": "Connecting Regional Transit Station Platform",
        "latitude": 12.9156,
        "longitude": 77.5736
      },
      {
        "name": "Dayananda Sagar College Bus Stop",
        "type": "High-Volume Student Transit Point",
        "latitude": 12.9089,
        "longitude": 77.5618
      }
    ],
    "latitude": 12.9068,
    "longitude": 77.5621
  },
  {
    "location": "padmanabhanagar",
    "landmarks": [
      {
        "name": "Deve Gowda Petroleum Junction Roundabout",
        "description": "A universally recognized outer traffic circle landmark named after India's former Prime Minister, anchoring regional navigation.",
        "latitude": 12.9208,
        "longitude": 77.5562
      },
      {
        "name": "Prarthana School Playground Fields",
        "description": "A major neighborhood geographical anchor and primary public community orientation point.",
        "latitude": 12.9168,
        "longitude": 77.5584
      },
      {
        "name": "Padmanabhanagar Central BBMP Park",
        "description": "An immaculately landscaped public garden offering specialized reflexology tracks and tree avenues.",
        "latitude": 12.9174,
        "longitude": 77.5542
      },
      {
        "name": "Kere Anjaneya Swamy Temple",
        "description": "A historic, beautifully restored lakeside shrine holding immense socio-cultural value for long-time residents.",
        "latitude": 12.9139,
        "longitude": 77.5518
      }
    ],
    "food_and_shopping": [
      {
        "name": "Ganesh Grand Padmanabhanagar",
        "type": "Traditional South Indian Vegetarian Tiffin Diner",
        "latitude": 12.9181,
        "longitude": 77.5574
      },
      {
        "name": "Chitti's Thatte Idli",
        "type": "Popular Quick Service Regional Breakfast Spot",
        "latitude": 12.9198,
        "longitude": 77.5546
      },
      {
        "name": "Kathriguppe Retail High Street Belt",
        "type": "Household Shopping & Multi-Brand Apparel Zone",
        "latitude": 12.9248,
        "longitude": 77.5564
      },
      {
        "name": "Corner House Ice Creams Padmanabhanagar",
        "type": "Classic Dessert parlor Room",
        "latitude": 12.9189,
        "longitude": 77.5569
      }
    ],
    "transport": [
      {
        "name": "Padmanabhanagar Main Bus Stop",
        "type": "Arterial Neighborhood Transit Point",
        "latitude": 12.9178,
        "longitude": 77.5568
      },
      {
        "name": "Banashankari Metro Station Access",
        "type": "Connecting Multi-Modal Metro Hub",
        "latitude": 12.9156,
        "longitude": 77.5736
      },
      {
        "name": "Deve Gowda Petrol Bunk Bus Stop",
        "type": "Outer Ring Road Express Bus Bay",
        "latitude": 12.9205,
        "longitude": 77.5561
      },
      {
        "name": "Yelachenahalli Metro Station Facility",
        "type": "Accessible Elevated Metro Station",
        "latitude": 12.8964,
        "longitude": 77.5721
      }
    ],
    "latitude": 12.9192,
    "longitude": 77.5564
  },
  {
    "location": "uttarahalli",
    "landmarks": [
      {
        "name": "Uttarahalli Lake & Bird Walkway",
        "description": "A major ecosystem lake rejuvenation project featuring beautiful over-water bridge decks and flora preservation.",
        "latitude": 12.9034,
        "longitude": 77.5432
      },
      {
        "name": "Subramanyapura Police Station Circle",
        "description": "A vital historical crossroad intersection node mapping older village lines with new suburban housing zones.",
        "latitude": 12.8988,
        "longitude": 77.5456
      },
      {
        "name": "Doresanipalya Forest Reserve Fringe",
        "description": "An ecological green lung buffer zone offering exceptional bird watching and natural nature tracking.",
        "latitude": 12.8912,
        "longitude": 77.5624
      },
      {
        "name": "Sri Vasantha Vallabha Temple Complex",
        "description": "An ancient, culturally rich temple landmark tracking regional history back several centuries.",
        "latitude": 12.8874,
        "longitude": 77.5492
      }
    ],
    "food_and_shopping": [
      {
        "name": "Uttarahalli Main Road Retail Markets",
        "type": "Dense Commercial Domestic Produce & Goods District",
        "latitude": 12.9048,
        "longitude": 77.5414
      },
      {
        "name": "Sri Krishna Upahar Uttarahalli",
        "type": "Traditional South Indian Quick Service Diner",
        "latitude": 12.9058,
        "longitude": 77.5402
      },
      {
        "name": "Polar Bear Ice Cream Sundaes Area Spot",
        "type": "Neighborhood Family Dessert Parlor",
        "latitude": 12.9061,
        "longitude": 77.5391
      },
      {
        "name": "D-Mart Uttarahalli Sector",
        "type": "Mega Value Hypermarket Retail Unit",
        "latitude": 12.9022,
        "longitude": 77.5364
      }
    ],
    "transport": [
      {
        "name": "Uttarahalli Circle Bus Station",
        "type": "Central Arterial BMTC Route Point",
        "latitude": 12.9052,
        "longitude": 77.5411
      },
      {
        "name": "Yelachenahalli Metro Station Connection",
        "type": "Nearest Highway Metro Point (Green Line)",
        "latitude": 12.8964,
        "longitude": 77.5721
      },
      {
        "name": "Subramanyapura Bus Stop Bay",
        "type": "Sub-Arterial Extension Route Stop",
        "latitude": 12.8984,
        "longitude": 77.5459
      },
      {
        "name": "Kengeri Railway Station Terminal",
        "type": "Accessible Regional Passenger Train Hub",
        "latitude": 12.9176,
        "longitude": 77.4834
      }
    ],
    "latitude": 12.9054,
    "longitude": 77.5408
  },
  {
    "location": "kanakapura road",
    "landmarks": [
      {
        "name": "Art of Living International Center (AOL)",
        "description": "The globally renowned spiritual ashram mega-campus featuring the breathtaking multi-tier Vishalakshi Mantap architecture.",
        "latitude": 12.8136,
        "longitude": 77.5084
      },
      {
        "name": "Khoday's Brewery Estate Landmark",
        "description": "A colossal industrial legacy landscape that historically anchored early manufacturing expansion along the highway.",
        "latitude": 12.8841,
        "longitude": 77.5518
      },
      {
        "name": "Yelachenahalli Lake Catchment Strip",
        "description": "A key environmental natural water drainage framework balancing sub-surface water lines.",
        "latitude": 12.8954,
        "longitude": 77.5684
      },
      {
        "name": "Vajrahalli ISRO Layout Edge Communities",
        "description": "A prominent, high-density real estate growth sector indicating modern urban development plans.",
        "latitude": 12.8774,
        "longitude": 77.5412
      }
    ],
    "food_and_shopping": [
      {
        "name": "Forum South Western Mall (Prestige Falcon City)",
        "type": "Mega Premium Lifestyle Shopping & Multiplex Mall",
        "latitude": 12.8764,
        "longitude": 77.5436
      },
      {
        "name": "The Riviera Highway Microbrewery",
        "type": "Spacious Open-Air Craft Beer Lounge & Garden Kitchen",
        "latitude": 12.8524,
        "longitude": 77.5312
      },
      {
        "name": "Adyar Ananda Bhavan (A2B) Kanakapura Highway",
        "type": "Massive Commuter Expressway Vegetarian Resto-Hub",
        "latitude": 12.8631,
        "longitude": 77.5384
      },
      {
        "name": "Vasu Hotel Kanakapura Traditional",
        "type": "Famous Heritage Regional Breakfast Diner",
        "latitude": 12.8804,
        "longitude": 77.5482
      }
    ],
    "transport": [
      {
        "name": "Silk Institute Metro Station",
        "type": "Southern Terminus of the Green Line Metro",
        "latitude": 12.8462,
        "longitude": 77.5256
      },
      {
        "name": "Yelachenahalli Metro Station Hub",
        "type": "Elevated High-Volume Highway Metro Facility",
        "latitude": 12.8964,
        "longitude": 77.5721
      },
      {
        "name": "Thalaghattapura Metro Station",
        "type": "Elevated Transit Corridor Facility (Green Line)",
        "latitude": 12.8654,
        "longitude": 77.5361
      },
      {
        "name": "Vajrahalli Metro Station Platform",
        "type": "Elevated Highway Transit Platform (Green Line)",
        "latitude": 12.8756,
        "longitude": 77.5424
      }
    ],
    "latitude": 12.8712,
    "longitude": 77.5446
  },
  {
    "location": "arekere",
    "landmarks": [
      {
        "name": "Arekere Lake Eco-Restoration Area",
        "description": "A vast residential lake sanctuary featuring walking paths, citizen tree plantations, and micro-wetland zones.",
        "latitude": 12.8844,
        "longitude": 77.5978
      },
      {
        "name": "Arekere MICO Layout Sports Ground",
        "description": "A highly popular local athletic open field famous for community cricket matches and seasonal public fairs.",
        "latitude": 12.8884,
        "longitude": 77.6036
      },
      {
        "name": "Hulimavu Cave Temple Border Site",
        "description": "An ancient rock-cut monolithic cave temple shrine standing just on the southeastern layout line.",
        "latitude": 12.8791,
        "longitude": 77.5974
      },
      {
        "name": "Sri Rama Temple Main Circle",
        "description": "The primary traditional neighborhood reference node intersecting dense interior commercial blocks.",
        "latitude": 12.8858,
        "longitude": 77.6028
      }
    ],
    "food_and_shopping": [
      {
        "name": "Arekere BG Road Commercial High Street",
        "type": "Dense Multi-Brand Footwear & Apparel Retail Strip",
        "latitude": 12.8872,
        "longitude": 77.6011
      },
      {
        "name": "Aroma's Hyderabad House Arekere",
        "type": "Authentic Mughlai & Dum Biryani Specialty Diner",
        "latitude": 12.8864,
        "longitude": 77.6018
      },
      {
        "name": "Udupi Garden Restaurant Arekere",
        "type": "Classic South Indian Vegetarian Tiffin Room",
        "latitude": 12.8889,
        "longitude": 77.6014
      },
      {
        "name": "Polar Bear Ice Cream Sundaes Arekere",
        "type": "Neighborhood Dessert Parlor Kiosk",
        "latitude": 12.8861,
        "longitude": 77.6016
      }
    ],
    "transport": [
      {
        "name": "Arekere Gate Bus Stop (Bannerghatta Road)",
        "type": "Arterial Highway BMTC Bus Bay",
        "latitude": 12.8878,
        "longitude": 77.6013
      },
      {
        "name": "Hulimavu Metro Station",
        "type": "Nearby Pink Line Elevated Transit Facility",
        "latitude": 12.8814,
        "longitude": 77.6016
      },
      {
        "name": "JP Nagar 4th Phase Metro Stop Link",
        "type": "Accessible Connecting Metro Network",
        "latitude": 12.9064,
        "longitude": 77.5991
      },
      {
        "name": "MICO Layout Bus Terminus Platform",
        "type": "Local Neighborhood Route Transit Point",
        "latitude": 12.8914,
        "longitude": 77.6042
      }
    ],
    "latitude": 12.8862,
    "longitude": 77.6022
  },